{"Id":"TESTUPM567-77","Type":"MetaWear","Structure":["QuaterW","QuaterX","QuaterY","QuaterZ","LinearAccelX","LinearAccelY","LinearAccelZ","CorrectedAccelX","CorrectedAccelY","CorrectedAccelZ","GravityX","GravityY","GravityZ","AngVelocityX","AngVelocityY","AngVelocityZ","MagFieldX","MagFieldY","MagFieldZ","EuAnglesPitch","EuAnglesRoll","EuAnglesYaw","Altitude","Pressure","TimeStamp","Hand"],"Lat":40.4540006,"Long":-3.6930733,"AppVersion":"1.0.0","LH-DeviceMac":"F5:38:30:B8:26:DD","LH-DeviceName":"MetaWear","RH-DeviceMac":"E8:D4:6C:D3:DD:2E","RH-DeviceName":"MetaWear"}
0.99998695,-0.00077290,-0.00505413,-0.00000060,0.00702859,-0.00189172,0.00388427,0.01762500,-0.00294922,1.00383198,0.01010813,-0.00154578,0.99994767,-0.12203299,-0.12199596,0.12207003,-0.00004210,0.00001480,-0.00002120,0.08857092,0.57916141,0.00006828,680.0781,93413.0781,1711269408249,Right
0.99999988,0.00048800,0.00003986,0.00000008,0.00175160,0.00414118,0.00848088,0.00216016,0.00560547,1.00945699,-0.00007973,0.00097600,0.99999952,-0.00003704,0.06070166,-0.12210708,-0.00001960,-0.00004940,-0.00002610,-0.05592071,-0.00456815,359.99917603,679.8867,93415.2500,1711269408352,Left
0.99999988,0.00048800,0.00003986,0.00000008,0.00028676,0.00511775,0.00750431,0.01811328,-0.00343750,1.00432026,-0.00007973,0.00097600,0.99999952,-0.12203299,0.06122023,0.18314210,-0.00004250,0.00001330,-0.00002190,0.08857092,0.57916141,0.00006828,679.9414,93414.6250,1711269408503,Right
0.99999988,0.00048800,0.00003986,0.00000008,0.00800516,-0.00189172,0.00437255,0.00118359,0.00560547,1.00848043,-0.00007973,0.00097600,0.99999952,-0.06110910,-0.00037043,-0.18317913,-0.00001740,-0.00004830,-0.00002530,-0.05592071,-0.00456815,359.99917603,681.2773,93399.6250,1711269408571,Left
0.99998695,-0.00077290,-0.00505413,-0.00000060,0.00077504,0.00462947,0.00799260,0.00118359,0.00609375,1.00750387,0.01010813,-0.00154578,0.99994767,0.06103501,-0.00037043,-0.18317913,-0.00001890,-0.00005020,-0.00002690,-0.05592071,-0.00456815,359.99917603,681.1875,93400.6406,1711269408739,Left
0.99999988,0.00048800,0.00003986,0.00000008,0.00898172,-0.00140344,0.00437255,0.00216016,0.00511719,1.00896871,-0.00007973,0.00097600,0.99999952,-0.12218115,-0.00037043,-0.12210708,-0.00004180,0.00001440,-0.00002230,0.08857092,0.57916141,0.00006828,681.9531,93402.4688,1711269409051,Right
0.99998695,-0.00077290,-0.00505413,-0.00000060,0.00223989,0.00462947,0.00994572,0.00020703,0.00707031,1.01043355,-0.00007973,0.00097600,0.99999952,-0.06110910,0.06070166,-0.18317913,-0.00001890,-0.00004940,-0.00002460,-0.05592071,-0.00456815,359.99917603,682.3516,93387.5313,1711269409165,Left
0.99999988,0.00048800,0.00003986,0.00000008,0.00321645,0.00511775,0.00896916,0.00118359,0.00560547,1.00799215,0.01010813,-0.00154578,0.99994767,-0.06110910,-0.00037043,0.00003704,-0.00001850,-0.00004910,-0.00002570,-0.05592071,-0.00456815,359.99917603,681.4180,93398.0156,1711269409333,Left
0.99999988,0.00048800,0.00003986,0.00000008,0.00077504,0.00609431,0.00945744,-0.00076953,0.00560547,1.00848043,-0.00007973,0.00097600,0.99999952,0.06103501,-0.00037043,-0.18317913,-0.00001780,-0.00005020,-0.00002530,-0.05592071,-0.00456815,359.99917603,681.6719,93395.1719,1711269409464,Left
0.99998695,-0.00077290,-0.00505413,-0.00000060,0.00849344,-0.00238000,0.00437255,0.01713672,-0.00392578,1.00285542,0.01010813,-0.00154578,0.99994767,0.06118318,-0.18306801,-0.12218115,-0.00004290,0.00001370,-0.00002120,0.08857092,0.57916141,0.00006828,679.8477,93415.6875,1711269409696,Right
0.99999988,0.00048800,0.00003986,0.00000008,0.00702859,-0.00238000,0.00290771,0.00069531,0.00658203,1.00848043,-0.00007973,0.00097600,0.99999952,-0.12218115,0.12177369,-0.18317913,-0.00001930,-0.00004800,-0.00002570,-0.05592071,-0.00456815,359.99917603,680.8828,93404.0469,1711269409757,Left
0.99998695,-0.00077290,-0.00505413,-0.00000060,0.00028676,0.00365290,0.00652775,0.01860156,-0.00392578,1.00432026,-0.00007973,0.00097600,0.99999952,0.00011112,-0.12199596,0.06103501,-0.00004180,0.00001520,-0.00002230,0.08857092,0.57916141,0.00006828,679.3828,93420.9219,1711269409950,Right
0.99999988,0.00048800,0.00003986,0.00000008,0.00849344,-0.00238000,0.00437255,0.01762500,-0.00441406,1.00480855,0.01010813,-0.00154578,0.99994767,0.06118318,-0.06092390,0.12210708,-0.00004180,0.00001410,-0.00002160,0.08857092,0.57916141,0.00006828,680.0781,93413.0781,1711269409990,Right
0.99999988,0.00048800,0.00003986,0.00000008,0.00223989,0.00609431,0.00994572,0.01860156,-0.00441406,1.00480855,-0.00007973,0.00097600,0.99999952,0.00011112,0.12229227,-0.00003704,-0.00004210,0.00001440,-0.00002120,0.08857092,0.57916141,0.00006828,679.3828,93420.9219,1711269410122,Right
0.99999988,0.00048800,0.00003986,0.00000008,0.00370473,0.00560603,0.00848088,0.00118359,0.00560547,1.00896871,-0.00007973,0.00097600,0.99999952,-0.30539733,0.18284577,-0.12210708,-0.00002070,-0.00004870,-0.00002490,-0.05592071,-0.00456815,359.99917603,681.9531,93387.9688,1711269410571,Left
0.99999988,0.00048800,0.00003986,0.00000008,0.00223989,0.00511775,0.00799260,0.01713672,-0.00343750,1.00334370,-0.00007973,0.00097600,0.99999952,0.00011112,0.06122023,-0.30539733,-0.00004180,0.00001410,-0.00002160,0.08857092,0.57916141,0.00006828,679.4531,93420.1719,1711269410844,Right
0.99998695,-0.00077290,-0.00505413,-0.00000060,0.00605203,-0.00189172,0.00437255,-0.00028125,0.00609375,1.00652730,0.01010813,-0.00154578,0.99994767,0.06103501,-0.06144247,-0.18317913,-0.00001890,-0.00004830,-0.00002460,-0.05592071,-0.00456815,359.99917603,681.6523,93395.3984,1711269410908,Left
0.99999988,0.00048800,0.00003986,0.00000008,0.00223989,0.00462947,0.00994572,0.01616016,-0.00246094,1.00432026,-0.00007973,0.00097600,0.99999952,-0.18310505,0.12229227,-0.18325321,-0.00004100,0.00001330,-0.00002120,0.08857092,0.57916141,0.00006828,679.5156,93419.4063,1711269411142,Right
0.99998695,-0.00077290,-0.00505413,-0.00000060,0.00605203,-0.00091516,0.00437255,0.01811328,-0.00392578,1.00676167,0.01010813,-0.00154578,0.99994767,0.36654344,0.00014817,0.12210708,-0.00004180,0.00001410,-0.00002230,0.08857092,0.57916141,0.00006828,678.7148,93428.4531,1711269411182,Right
0.99998695,-0.00077290,-0.00505413,-0.00000060,0.00272817,0.00365290,0.00896916,0.00167188,0.00560547,1.00896871,-0.00007973,0.00097600,0.99999952,-0.00003704,0.06070166,-0.12210708,-0.00001780,-0.00004940,-0.00002530,-0.05592071,-0.00456815,359.99917603,681.6523,93395.3984,1711269411245,Left
0.99999988,0.00048800,0.00003986,0.00000008,0.00028676,0.00560603,0.00799260,0.00216016,0.00658203,1.00799215,-0.00007973,0.00097600,0.99999952,-0.00003704,0.12177369,0.00003704,-0.00001850,-0.00004940,-0.00002570,-0.05592071,-0.00456815,359.99917603,681.8828,93392.7734,1711269411715,Left
0.99999988,0.00048800,0.00003986,0.00000008,0.00321645,0.00609431,0.00652775,0.00118359,0.00609375,1.00896871,-0.00007973,0.00097600,0.99999952,-0.12218115,-0.18358660,0.12218115,-0.00001810,-0.00004940,-0.00002530,-0.05592071,-0.00456815,359.99917603,681.0430,93402.2500,1711269411841,Left
0.99999988,0.00048800,0.00003986,0.00000008,0.00175160,0.00511775,0.00701603,0.00118359,0.00560547,1.00848043,-0.00007973,0.00097600,0.99999952,-0.00003704,-0.06144247,-0.18317913,-0.00001890,-0.00004940,-0.00002530,-0.05592071,-0.00456815,359.99917603,681.6523,93395.3984,1711269412011,Left
0.99998695,-0.00077290,-0.00505413,-0.00000060,0.00370473,0.00414118,0.00701603,0.01860156,-0.00294922,1.00383198,-0.00007973,0.00097600,0.99999952,0.00011112,0.06122023,0.30532324,-0.00004210,0.00001370,-0.00002040,0.08857092,0.57916141,0.00006828,680.0547,93413.3906,1711269412200,Right
0.99998695,-0.00077290,-0.00505413,-0.00000060,0.00849344,-0.00140344,0.00388427,0.01811328,-0.00441406,1.00383198,0.01010813,-0.00154578,0.99994767,-0.18310505,0.00014817,-0.36646938,-0.00004140,0.00001520,-0.00002120,0.08857092,0.57916141,0.00006828,679.8164,93416.0156,1711269412247,Right
0.99998695,-0.00077290,-0.00505413,-0.00000060,0.00751687,-0.00042688,0.00534911,0.01762500,-0.00197266,1.00529683,0.01010813,-0.00154578,0.99994767,0.06118318,0.06122023,-0.06110910,-0.00001890,-0.00004910,-0.00002610,-0.05592071,-0.00456815,359.99917603,679.5508,93394.6094,1711269412430,Left
0.99999988,0.00048800,0.00003986,0.00000008,0.00077504,0.00365290,0.00701603,0.00216016,0.00462891,1.00701559,-0.00007973,0.00097600,0.99999952,-0.00003704,0.18284577,0.06110910,-0.00001930,-0.00004940,-0.00002460,-0.05592071,-0.00456815,359.99917603,679.4219,93420.4844,1711269412606,Left
0.99998695,-0.00077290,-0.00505413,-0.00000060,0.00223989,0.00365290,0.00701603,0.01664844,-0.00197266,1.00334370,-0.00007973,0.00097600,0.99999952,0.18332729,-0.06092390,-0.12218115,-0.00004140,0.00001330,-0.00002190,0.08857092,0.57916141,0.00006828,null,93412.0078,1711269412626,Right
0.99998695,-0.00077290,-0.00505413,-0.00000060,0.00272817,0.00414118,0.00896916,0.00069531,0.00609375,1.00896871,0.01010813,-0.00154578,0.99994767,-0.00003704,-0.00037043,-0.06103501,-0.00001890,-0.00004940,-0.00002570,-0.05592071,-0.00456815,359.99917603,681.9727,93391.7656,1711269412732,Left
0.99999988,0.00048800,0.00003986,0.00000008,0.00077504,0.00511775,0.00896916,0.01908984,-0.00343750,1.00334370,-0.00007973,0.00097600,0.99999952,0.12225524,0.12229227,0.12210708,-0.00004180,0.00001480,-0.00002190,0.08857092,0.57916141,0.00006828,680.0547,93413.3906,1711269412796,Right
0.99999988,0.00048800,0.00003986,0.00000008,0.00028676,0.00462947,0.00799260,0.00313672,0.00560547,1.00799215,-0.00007973,0.00097600,0.99999952,-0.12218115,0.06070166,0.06110910,-0.00001960,-0.00004800,-0.00002650,-0.05592071,-0.00456815,359.99917603,681.8828,93400.1953,1711269413029,Left
0.99998695,-0.00077290,-0.00505413,-0.00000060,0.00321645,0.00462947,0.00799260,0.01860156,-0.00148437,1.00383198,0.01010813,-0.00154578,0.99994767,0.06118318,-0.24414006,0.06103501,-0.00003990,0.00001370,-0.00002160,0.08857092,0.57916141,0.00006828,680.2148,93411.5625,1711269413137,Right
0.99999988,0.00048800,0.00003986,0.00000008,0.00126332,0.00755915,0.01043400,0.00167188,0.00609375,1.00799215,-0.00007973,0.00097600,0.99999952,-0.06110910,-0.06144247,0.00003704,-0.00001890,-0.00004830,-0.00002610,-0.05592071,-0.00456815,359.99917603,682.0469,93390.9375,1711269413328,Left
0.99999988,0.00048800,0.00003986,0.00000008,0.00028676,0.00560603,0.00896916,0.00216016,0.00804687,1.00945699,-0.00007973,0.00097600,0.99999952,-0.18325321,-0.12251450,-0.12210708,-0.00001780,-0.00005060,-0.00002530,-0.05592071,-0.00456815,359.99917603,681.8828,93413.8281,1711269413625,Left
0.99999988,0.00048800,0.00003986,0.00000008,0.00223989,0.00707087,0.00945744,0.00069531,0.00707031,1.00652730,-0.00007973,0.00097600,0.99999952,-0.00003704,-0.00037043,-0.12210708,-0.00001810,-0.00004910,-0.00002570,-0.05592071,-0.00456815,359.99917603,681.8828,93392.7734,1711269413669,Left
0.99999988,0.00048800,0.00003986,0.00000008,0.00605203,-0.00042688,0.00632567,-0.00076953,0.00414062,1.00945699,-0.00007973,0.00097600,0.99999952,-0.06110910,-0.12251450,-0.06103501,-0.00004210,0.00001370,-0.00002190,0.08857092,0.57916141,0.00006828,679.1484,93423.5391,1711269413983,Right
0.99998695,-0.00077290,-0.00505413,-0.00000060,0.00126332,0.00560603,0.00896916,0.00167188,0.00609375,1.00896871,0.01010813,-0.00154578,0.99994767,-0.24432528,-0.24465862,0.06110910,-0.00001850,-0.00004940,-0.00002650,-0.05592071,-0.00456815,359.99917603,681.5625,93396.4063,1711269414093,Left
0.99999988,0.00048800,0.00003986,0.00000008,0.00995828,-0.00189172,0.00388427,0.00167188,0.00755859,1.00994527,-0.00007973,0.00097600,0.99999952,-0.00003704,-0.06144247,-0.12210708,-0.00001850,-0.00004940,-0.00002530,0.08857092,0.57916141,0.00006828,681.7422,93396.4063,1711269414239,Right
0.99998695,-0.00077290,-0.00505413,-0.00000060,0.00126332,0.00560603,0.00799260,0.00167188,0.00707031,1.00945699,-0.00007973,0.00097600,0.99999952,0.12210708,0.12177369,-0.12210708,-0.00001850,-0.00004800,-0.00002490,-0.05592071,-0.00456815,359.99917603,679.3828,93420.9219,1711269414390,Left
0.99999988,0.00048800,0.00003986,0.00000008,-0.00166636,0.00462947,0.00896916,0.00167188,0.00560547,1.00750387,-0.00007973,0.00097600,0.99999952,0.00011112,0.00014817,-0.12218115,-0.00004250,0.00001560,-0.00002160,0.08857092,0.57916141,0.00006828,681.9531,93391.9844,1711269414576,Right
0.99998695,-0.00077290,-0.00505413,-0.00000060,0.00702859,-0.00238000,0.00583739,0.00216016,0.00511719,1.00848043,0.01010813,-0.00154578,0.99994767,-0.18325321,-0.00037043,-0.06103501,-0.00001890,-0.00004830,-0.00002530,-0.05592071,-0.00456815,359.99917603,681.9727,93391.7656,1711269414647,Left
0.99998695,-0.00077290,-0.00505413,-0.00000060,0.00702859,-0.00091516,0.00290771,0.00216016,0.00707031,1.00701559,0.01010813,-0.00154578,0.99994767,0.06103501,-0.06144247,-0.18317913,-0.00001780,-0.00004800,-0.00002610,-0.05592071,-0.00456815,359.99917603,681.5078,93397.0000,1711269414690,Left
0.99998695,-0.00077290,-0.00505413,-0.00000060,0.00654031,-0.00238000,0.00388427,0.01811328,-0.00294922,1.00432026,0.01010813,-0.00154578,0.99994767,-0.30524918,-0.06092390,-0.12218115,-0.00004210,0.00001410,-0.00002160,0.08857092,0.57916141,0.00006828,679.8086,93416.1406,1711269414838,Right
0.99998695,-0.00077290,-0.00505413,-0.00000060,0.00800516,-0.00140344,0.00437255,0.00313672,0.00414062,1.00750387,0.01010813,-0.00154578,0.99994767,0.18317913,0.12177369,-0.06103501,-0.00001850,-0.00004980,-0.00002460,-0.05592071,-0.00456815,359.99917603,681.5820,93396.1875,1711269414901,Left
0.99998695,-0.00077290,-0.00505413,-0.00000060,0.00077504,0.00511775,0.00896916,0.00216016,0.00804687,1.00799215,0.01010813,-0.00154578,0.99994767,-0.06110910,-0.12251450,0.06110910,-0.00001780,-0.00004830,-0.00002570,-0.05592071,-0.00456815,359.99917603,681.8828,93392.7734,1711269414986,Left
0.99999988,0.00048800,0.00003986,0.00000008,0.00702859,-0.00140344,0.00486083,0.01860156,-0.00246094,1.00285542,0.01010813,-0.00154578,0.99994767,-0.12203299,0.18336433,-0.06110910,-0.00004180,0.00001260,-0.00002160,0.08857092,0.57916141,0.00006828,682.1172,93390.1563,1711269415092,Right
0.99998695,-0.00077290,-0.00505413,-0.00000060,0.00175160,0.00609431,0.00701603,0.00216016,0.00658203,1.00896871,-0.00007973,0.00097600,0.99999952,-0.06110910,0.18284577,-0.18317913,-0.00001960,-0.00004940,-0.00002570,-0.05592071,-0.00456815,359.99917603,681.7422,93394.3828,1711269415112,Left
0.99999988,0.00048800,0.00003986,0.00000008,0.00849344,-0.00091516,0.00290771,0.01860156,-0.00294922,1.00383198,-0.00007973,0.00097600,0.99999952,0.12225524,0.24443640,-0.18325321,-0.00004250,0.00001370,-0.00002280,0.08857092,0.57916141,0.00006828,679.6133,93418.3125,1711269415261,Right
0.99998695,-0.00077290,-0.00505413,-0.00000060,0.01435281,0.00738562,0.00290771,0.02104297,0.00828125,1.00285542,-0.00007973,0.00097600,0.99999952,-0.18310505,0.06122023,0.06103501,-0.00004140,0.00001370,-0.00002160,0.08975773,0.59247333,0.00007244,679.7773,93416.4531,1711269415941,Right
0.99999988,0.00048800,0.00003986,0.00000008,0.00321645,0.00414118,0.00945744,0.00118359,0.00755859,1.00945699,0.01034045,-0.00156649,0.99994522,-0.00003704,-0.06144247,0.24432528,-0.00001850,-0.00004870,-0.00002610,-0.05592071,-0.00456815,359.99917603,null,93411.5625,1711269416002,Left
0.99998599,-0.00076801,-0.00523825,-0.00000076,0.00177754,-0.00873745,0.00339978,0.00362500,0.00755859,1.00799215,0.01047636,-0.00153599,0.99994391,-0.00003704,-0.24465862,0.00003704,-0.00004100,0.00001370,-0.00002120,0.08920971,0.60386741,0.00008403,681.6719,93395.1719,1711269416065,Right
0.99998522,-0.00079351,-0.00537581,-0.00000074,0.00223989,0.00316462,0.00799260,0.00216016,0.00365234,1.00848043,-0.00007973,0.00097600,0.99999952,0.06103501,-0.00037043,-0.06103501,-0.00001890,-0.00004830,-0.00002570,-0.05592071,-0.00456815,359.99917603,681.8633,93393.0000,1711269416262,Left
0.99998486,-0.00080181,-0.00543767,-0.00000074,0.00479670,-0.00281047,0.00535728,0.00264844,0.00609375,1.00945699,-0.00007973,0.00097600,0.99999952,-0.06110910,-0.00037043,0.00003704,-0.00004180,0.00001370,-0.00002190,0.09231679,0.62566942,0.00008457,681.7422,93394.3828,1711269416362,Right
0.99998313,-0.00126357,-0.00566330,0.00005757,0.00579798,0.01399778,0.00848136,0.01290234,0.01634766,1.00848043,-0.00021986,0.00137332,0.99999905,-0.00003704,0.06070166,-0.12210708,-0.00001890,-0.00004980,-0.00002610,-0.08454674,-0.01174415,0.00919424,682.4414,93386.5156,1711269416768,Left
0.99999976,0.00077315,0.00007815,-0.00008021,0.00524627,-0.00668300,0.00994640,0.01616016,-0.00294922,1.00432026,-0.00015643,0.00154628,0.99999881,0.00011112,0.18336433,-0.00003704,-0.00004210,0.00001220,-0.00002160,0.14317489,0.66358501,359.99261475,679.8477,93392.7734,1711269417000,Right
0.99998242,-0.00124904,-0.00579093,0.00005733,0.00457865,-0.00045051,0.00439054,0.00020703,0.00658203,1.00701559,0.01158151,-0.00249871,0.99992967,-0.06096093,0.06122023,-0.18325321,-0.00004180,0.00001410,-0.00002080,0.14336225,0.66917044,359.99261475,680.0781,93390.1563,1711269417174,Right
0.99998212,-0.00125068,-0.00583967,0.00005728,0.00594601,-0.00093552,0.00439171,0.00118359,0.00560547,1.00945699,0.01167899,-0.00250198,0.99992853,-0.00003704,-0.12251450,-0.12210708,-0.00001700,-0.00004910,-0.00002530,-0.11706661,-0.00016041,0.00918299,682.5820,93384.9063,1711269418345,Left
0.99999952,0.00102160,0.00000132,-0.00008014,0.00545773,0.00101760,0.00536827,0.01567188,-0.00343750,1.00334370,-0.00000280,0.00204320,0.99999797,-0.24417712,0.00014817,0.12210708,-0.00004140,0.00001440,-0.00002160,0.14336225,0.66917044,359.99261475,680.0156,93413.8281,1711269418407,Right
0.99998212,-0.00125068,-0.00583967,0.00005728,0.00399289,-0.00093552,0.00341515,0.00069531,0.00902344,1.00750387,0.01167899,-0.00250198,0.99992853,-0.06110910,0.18284577,0.00003704,-0.00001780,-0.00004910,-0.00002610,-0.11706661,-0.00016041,0.00918299,682.4219,93386.7422,1711269418473,Left
0.99999952,0.00102160,0.00000132,-0.00008014,0.00496945,0.00150588,0.00390343,0.01762500,-0.00392578,1.00334370,0.01167899,-0.00250198,0.99992853,0.00011112,0.06122023,0.06103501,-0.00004210,0.00001520,-0.00002160,0.14336225,0.66917044,359.99261475,680.0781,93413.0781,1711269418533,Right
0.99998212,-0.00125068,-0.00583967,0.00005728,0.00265124,0.00209742,0.00897071,0.00069531,0.00707031,1.00799215,0.01167899,-0.00250198,0.99992853,-0.06110910,0.06070166,0.06110910,-0.00001850,-0.00004830,-0.00002530,-0.11706661,-0.00016041,0.00918299,681.4375,93397.7969,1711269418684,Left
0.99999952,0.00102160,0.00000132,-0.00008014,0.00643429,0.00052932,0.00487999,-0.00028125,0.00658203,1.00848043,0.01167899,-0.00250198,0.99992853,-0.00003704,-0.12251450,-0.06103501,-0.00001930,-0.00004910,-0.00002530,-0.11706661,-0.00016041,0.00918299,682.6719,93383.8984,1711269418856,Left
0.99999952,0.00102160,0.00000132,-0.00008014,0.00069811,0.00502711,0.00945899,0.00264844,0.00560547,1.00799215,-0.00000280,0.00204320,0.99999797,-0.18325321,-0.24465862,0.00003704,-0.00001890,-0.00004910,-0.00002530,-0.11706661,-0.00016041,0.00918299,679.6133,93418.3125,1711269418979,Left
0.99998212,-0.00125068,-0.00583967,0.00005728,0.00265124,0.00356227,0.00799415,0.01860156,-0.00392578,1.00334370,-0.00000280,0.00204320,0.99999797,-0.18310505,0.12229227,-0.00003704,-0.00004180,0.00001410,-0.00002120,0.14336225,0.66917044,359.99261475,null,93413.0781,1711269418999,Right
0.99999952,0.00102160,0.00000132,-0.00008014,0.00692257,-0.00142381,0.00341515,0.00069531,0.00609375,1.00701559,-0.00000280,0.00204320,0.99999797,-0.18325321,0.12177369,-0.06103501,-0.00001850,-0.00004910,-0.00002530,-0.11706661,-0.00016041,0.00918299,681.6016,93395.9609,1711269419066,Left
0.99999952,0.00102160,0.00000132,-0.00008014,0.00118639,0.00307399,0.00848243,0.00167188,0.00511719,1.00750387,0.01167899,-0.00250198,0.99992853,-0.00003704,0.06070166,-0.12210708,-0.00001890,-0.00004800,-0.00002610,-0.11706661,-0.00016041,0.00918299,681.7422,93422.0313,1711269419281,Left
0.99998212,-0.00125068,-0.00583967,0.00005728,0.00399289,0.00004104,0.00536827,0.00167188,0.00560547,1.00701559,0.01167899,-0.00250198,0.99992853,-0.12218115,-0.06144247,-0.24425119,-0.00001850,-0.00004800,-0.00002530,-0.11706661,-0.00016041,0.00918299,682.0273,93391.1641,1711269419533,Left
0.99999952,0.00102160,0.00000132,-0.00008014,0.00118639,0.00405055,0.00945899,0.00118359,0.00609375,1.00945699,-0.00000280,0.00204320,0.99999797,-0.36646938,0.12177369,0.06110910,-0.00001930,-0.00004870,-0.00002530,0.14336225,0.66917044,359.99261475,682.3516,93413.8281,1711269419719,Right
0.99999952,0.00102160,0.00000132,-0.00008014,0.00643429,0.00004104,0.00487999,0.01762500,-0.00148437,1.00334370,-0.00000280,0.00204320,0.99999797,-0.06096093,0.12229227,0.12210708,-0.00004180,0.00001370,-0.00002190,0.14336225,0.66917044,359.99261475,679.4531,93420.1719,1711269419850,Right
0.99999952,0.00102160,0.00000132,-0.00008014,0.00594601,0.00101760,0.00341515,0.01908984,-0.00148437,1.00285542,0.01167899,-0.00250198,0.99992853,0.06118318,-0.12199596,0.12210708,-0.00004180,0.00001290,-0.00002190,0.14336225,0.66917044,359.99261475,680.0781,93413.0781,1711269419897,Right
0.99998212,-0.00125068,-0.00583967,0.00005728,0.00216296,0.00356227,0.00799415,0.00069531,0.00560547,1.00896871,-0.00000280,0.00204320,0.99999797,0.06103501,0.12177369,0.12218115,-0.00001810,-0.00004870,-0.00002530,-0.11706661,-0.00016041,0.00918299,682.1172,93390.1563,1711269420127,Left
0.99998212,-0.00125068,-0.00583967,0.00005728,0.00020983,0.00405055,0.00701759,0.00020703,0.00609375,1.00750387,0.01167899,-0.00250198,0.99992853,-0.12218115,-0.12251450,-0.24425119,-0.00001810,-0.00004830,-0.00002650,-0.11706661,-0.00016041,0.00918299,679.7109,93392.7734,1711269420216,Left
0.99998212,-0.00125068,-0.00583967,0.00005728,0.00350461,0.00052932,0.00390343,0.00118359,0.00658203,1.00603902,-0.00000280,0.00204320,0.99999797,-0.06110910,-0.00037043,0.12218115,-0.00001930,-0.00004800,-0.00002530,-0.11706661,-0.00016041,0.00918299,681.2773,93399.6250,1711269420340,Left
0.99998212,-0.00125068,-0.00583967,0.00005728,0.00350461,-0.00093552,0.00439171,0.00216016,0.00462891,1.00896871,0.01167899,-0.00250198,0.99992853,-0.06110910,0.06070166,0.12218115,-0.00001810,-0.00004940,-0.00002410,-0.11706661,-0.00016041,0.00918299,681.8125,93393.5625,1711269420427,Left
0.99999952,0.00102160,0.00000132,-0.00008014,-0.00027845,0.00405055,0.00848243,0.00118359,0.00511719,1.00994527,-0.00000280,0.00204320,0.99999797,-0.12218115,0.06070166,0.00003704,-0.00001780,-0.00004940,-0.00002690,-0.11706661,-0.00016041,0.00918299,679.6133,93425.0781,1711269420642,Left
0.99998212,-0.00125068,-0.00583967,0.00005728,0.00167467,0.00502711,0.00945899,-0.00028125,0.00658203,1.00848043,-0.00000280,0.00204320,0.99999797,0.30532324,0.12177369,-0.18317913,-0.00001740,-0.00004910,-0.00002650,-0.11706661,-0.00016041,0.00918299,682.2773,93388.3203,1711269420809,Left
0.99999952,0.00102160,0.00000132,-0.00008014,0.00496945,-0.00044724,0.00341515,0.01713672,-0.00343750,1.00432026,0.01167899,-0.00250198,0.99992853,0.06118318,0.24443640,-0.06110910,-0.00004180,0.00001410,-0.00002120,0.14336225,0.66917044,359.99261475,679.8164,93416.0156,1711269420873,Right
0.99998212,-0.00125068,-0.00583967,0.00005728,0.00692257,-0.00142381,0.00487999,0.00020703,0.00707031,1.00799215,0.01167899,-0.00250198,0.99992853,-0.00003704,0.18284577,0.00003704,-0.00001930,-0.00005060,-0.00002460,-0.11706661,-0.00016041,0.00918299,679.8477,93415.6875,1711269420978,Left
0.99998212,-0.00125068,-0.00583967,0.00005728,0.00069811,0.00502711,0.00750587,0.00069531,0.00707031,1.00945699,-0.00000280,0.00204320,0.99999797,-0.18325321,-0.06144247,0.06110910,-0.00001930,-0.00004910,-0.00002570,-0.11706661,-0.00016041,0.00918299,681.9531,93391.9844,1711269421066,Left
0.99999952,0.00102160,0.00000132,-0.00008014,0.00594601,-0.00044724,0.00439171,0.01908984,-0.00246094,1.00480855,0.01167899,-0.00250198,0.99992853,0.00011112,0.12229227,-0.18325321,-0.00004180,0.00001440,-0.00002230,0.14336225,0.66917044,359.99261475,679.6133,93418.3125,1711269421084,Right
0.99998212,-0.00125068,-0.00583967,0.00005728,0.00069811,0.00502711,0.00945899,0.01616016,-0.00294922,1.00432026,-0.00000280,0.00204320,0.99999797,0.06118318,-0.24414006,0.12210708,-0.00004180,0.00001330,-0.00002080,0.14336225,0.66917044,359.99261475,680.5859,93407.4063,1711269421171,Right
0.99998212,-0.00125068,-0.00583967,0.00005728,0.00692257,-0.00093552,0.00341515,-0.00076953,0.00560547,1.00945699,0.01167899,-0.00250198,0.99992853,-0.00003704,0.18284577,-0.06103501,-0.00001850,-0.00004940,-0.00002490,-0.11706661,-0.00016041,0.00918299,682.3516,93387.5313,1711269421320,Left
0.99999952,0.00102160,0.00000132,-0.00008014,0.00167467,0.00453883,0.00897071,0.00118359,0.00560547,1.00896871,-0.00000280,0.00204320,0.99999797,-0.06110910,0.12177369,-0.24425119,-0.00001810,-0.00004830,-0.00002650,-0.11706661,-0.00016041,0.00918299,679.4766,93419.8516,1711269421401,Left
0.99998212,-0.00125068,-0.00583967,0.00005728,0.00692257,-0.00044724,0.00487999,0.00167188,0.00462891,1.00750387,0.01167899,-0.00250198,0.99992853,0.06103501,-0.18358660,0.00003704,-0.00001890,-0.00004830,-0.00002460,-0.11706661,-0.00016041,0.00918299,682.1172,93390.1563,1711269421533,Left
0.99998212,-0.00125068,-0.00583967,0.00005728,0.00313952,0.00502711,0.00799415,0.01664844,-0.00343750,1.00285542,0.01167899,-0.00250198,0.99992853,0.00011112,-0.12199596,-0.00007408,-0.00001930,-0.00004940,-0.00002530,-0.11706661,-0.00016041,0.00918299,680.0156,93413.8281,1711269421780,Left
0.99998212,-0.00125068,-0.00583967,0.00005728,0.00069811,0.00405055,0.00848243,0.00264844,0.00609375,1.00750387,-0.00000280,0.00204320,0.99999797,-0.18325321,-0.18358660,0.00003704,-0.00001960,-0.00004800,-0.00002460,-0.11706661,-0.00016041,0.00918299,681.8828,93392.7734,1711269421956,Left
0.99998212,-0.00125068,-0.00583967,0.00005728,0.00692257,0.00150588,0.00487999,0.00069531,0.00707031,1.00652730,-0.00000280,0.00204320,0.99999797,-0.12218115,-0.06144247,0.12218115,-0.00001930,-0.00004870,-0.00002530,-0.11706661,-0.00016041,0.00918299,681.8828,93392.7734,1711269422300,Left
0.99998212,-0.00125068,-0.00583967,0.00005728,0.00643429,0.00150588,0.00390343,0.01762500,-0.00246094,1.00480855,0.01167899,-0.00250198,0.99992853,-0.06096093,-0.18306801,0.30528620,-0.00004140,0.00001440,-0.00002160,0.14336225,0.66917044,359.99261475,682.0469,93390.9375,1711269422485,Right
0.99999952,0.00102160,0.00000132,-0.00008014,-0.00027845,0.00453883,0.00750587,0.00313672,0.00560547,1.00994527,-0.00000280,0.00204320,0.99999797,-0.00003704,0.06070166,0.12218115,-0.00001810,-0.00004830,-0.00002570,-0.11706661,-0.00016041,0.00918299,682.7461,93383.0781,1711269422554,Left
0.99999952,0.00102160,0.00000132,-0.00008014,0.00216296,0.00356227,0.01043556,0.00118359,0.00462891,1.00750387,-0.00000280,0.00204320,0.99999797,-0.00003704,0.12177369,0.18325321,-0.00001810,-0.00004870,-0.00002490,-0.11706661,-0.00016041,0.00918299,681.9727,93391.7656,1711269422723,Left
0.99998212,-0.00125068,-0.00583967,0.00005728,0.00069811,0.00551539,0.00848243,0.01811328,-0.00246094,1.00432026,-0.00000280,0.00204320,0.99999797,0.00011112,0.12229227,-0.18329026,-0.00004140,0.00001370,-0.00002120,0.14336225,0.66917044,359.99261475,682.1172,93390.1563,1711269423209,Right
0.99998212,-0.00125068,-0.00583967,0.00005728,0.00496945,-0.00044724,0.00390343,0.02055469,-0.00246094,1.00529683,-0.00000280,0.00204320,0.99999797,0.06118318,0.00014817,0.18314210,-0.00004180,0.00001440,-0.00002160,0.14336225,0.66917044,359.99261475,680.6133,93407.0938,1711269423425,Right
0.99999952,0.00102160,0.00000132,-0.00008014,0.00448117,-0.00044724,0.00439171,0.00313672,0.00560547,1.00945699,0.01167899,-0.00250198,0.99992853,-0.06110910,0.12177369,-0.30532324,-0.00001930,-0.00004870,-0.00002530,-0.11706661,-0.00016041,0.00918299,679.0117,93425.0781,1711269423571,Left
0.99998212,-0.00125068,-0.00583967,0.00005728,0.00313952,0.00356227,0.00945899,0.00216016,0.00658203,1.00945699,0.01167899,-0.00250198,0.99992853,0.12210708,-0.06144247,0.06110910,-0.00001960,-0.00004800,-0.00002410,-0.11706661,-0.00016041,0.00918299,null,93407.8516,1711269423612,Left
0.99999952,0.00102160,0.00000132,-0.00008014,0.00545773,-0.00093552,0.00390343,0.01664844,-0.00343750,1.00432026,-0.00000280,0.00204320,0.99999797,0.18332729,0.12229227,-0.00007408,-0.00004250,0.00001440,-0.00002080,0.14336225,0.66917044,359.99261475,null,93419.8516,1711269423632,Right
0.99998212,-0.00125068,-0.00583967,0.00005728,0.00496945,-0.00093552,0.00439171,-0.00028125,0.00658203,1.00701559,0.01167899,-0.00250198,0.99992853,-0.12218115,-0.00037043,-0.18317913,-0.00001890,-0.00004940,-0.00002610,-0.11706661,-0.00016041,0.00918299,681.9023,93392.5469,1711269423702,Left
0.99998212,-0.00125068,-0.00583967,0.00005728,0.00545773,-0.00093552,0.00439171,0.01713672,-0.00392578,1.00480855,0.01167899,-0.00250198,0.99992853,0.00011112,0.12229227,0.12207003,-0.00001890,-0.00004870,-0.00002460,-0.11706661,-0.00016041,0.00918299,680.1484,93412.3203,1711269423864,Left
0.99999952,0.00102160,0.00000132,-0.00008014,0.00216296,0.00405055,0.00848243,0.00020703,0.00658203,1.00750387,-0.00000280,0.00204320,0.99999797,-0.12218115,-0.00037043,0.06110910,-0.00001810,-0.00004980,-0.00002570,-0.11706661,-0.00016041,0.00918299,679.4102,93420.6094,1711269423955,Left
0.99998212,-0.00125068,-0.00583967,0.00005728,0.00118639,0.00453883,0.00604103,0.00167188,0.00658203,1.00848043,0.01167899,-0.00250198,0.99992853,0.12210708,0.24391782,0.12218115,-0.00001930,-0.00004910,-0.00002530,-0.11706661,-0.00016041,0.00918299,679.6133,93418.3125,1711269424081,Left
0.99998212,-0.00125068,-0.00583967,0.00005728,0.00496945,0.00004104,0.00292686,0.00264844,0.00560547,1.00945699,0.01167899,-0.00250198,0.99992853,-0.12218115,0.12177369,-0.18317913,-0.00001890,-0.00004910,-0.00002530,-0.11706661,-0.00016041,0.00918299,682.7461,93383.0781,1711269424463,Left
